{
  "code":200,
  "source":"weather.measurements.api",
  "result":[
    {"station_details":{"latitude":-28.3644,"longitude":31.2065,"synop_no":68488,"station_name":"BABANANGO"}},
    {"station_details":{"latitude":-30.6651,"longitude":23.9927,"synop_no":68538,"station_name":"DE AAR WO"}},
    {"station_details":{"latitude":-34.1894,"longitude":22.1318,"synop_no":68928,"station_name":"MOSSEL BAY"}},
    {"station_details":{"latitude":-26.133, "longitude":26.1644,"synop_no":68341,"station_name":"LICHTENBURG"}},
    {"station_details":{"latitude":-29.0832,"longitude":30.6034,"synop_no":68487,"station_name":"GREYTOWN"}},
    {"station_details":{"latitude":-33.2907,"longitude":26.5026,"synop_no":68849,"station_name":"GRAHAMSTOWN"}},
    {"station_details":{"latitude":-33.6077,"longitude":18.4833,"synop_no":68809,"station_name":"ATLANTIS"}},
    {"station_details":{"latitude":-25.7158,"longitude":30.2303,"synop_no":68281,"station_name":"MACHADODORP AWS"}},
    {"station_details":{"latitude":-33.809, "longitude":25.6905,"synop_no":68941,"station_name":"PORT OF NGQURA HYBRID"}},
    {"station_details":{"latitude":-33.0128,"longitude":18.9771,"synop_no":68717,"station_name":"PORTERVILLE"}},
    {"station_details":{"latitude":-22.4517,"longitude":29.3315,"synop_no":68172,"station_name":"VENETIA MINE"}},
    {"station_details":{"latitude":-26.8981,"longitude":26.6209,"synop_no":68347,"station_name":"KLERKSDORP"}},
    {"station_details":{"latitude":-29.8185,"longitude":24.4112,"synop_no":68439,"station_name":"ORANIA AWS"}},
    {"station_details":{"latitude":-33.7989,"longitude":18.3744,"synop_no":68813,"station_name":"ROBBENEILAND"}},
    {"station_details":{"latitude":-28.8061,"longitude":24.7698,"synop_no":68438,"station_name":"KIMBERLEY WO"}},
    {"station_details":{"latitude":-23.3142,"longitude":30.6849,"synop_no":68187,"station_name":"GIYANI"}},
    {"station_details":{"latitude":-26.3008,"longitude":27.8136,"synop_no":68351,"station_name":"ZUURBEKOM AWS"}},
    {"station_details":{"latitude":-30.5621,"longitude":25.5278,"synop_no":68543,"station_name":"GARIEP DAM"}},
    {"station_details":{"latitude":-34.5516,"longitude":20.2521,"synop_no":68924,"station_name":"OVERBERG - AAWS"}},
    {"station_details":{"latitude":-23.7367,"longitude":30.1127,"synop_no":68188,"station_name":"TZANEEN-WESTFALIA ESTATE"}},
    {"station_details":{"latitude":-27.7773,"longitude":30.7961,"synop_no":68387,"station_name":"VRYHEID"}},
    {"station_details":{"latitude":-30.4647,"longitude":20.4783,"synop_no":68523,"station_name":"BRANDVLEI"}},
    {"station_details":{"latitude":-26.3123,"longitude":26.8138,"synop_no":68349,"station_name":"VENTERSDORP"}},
    {"station_details":{"latitude":-29.1582,"longitude":31.4023,"synop_no":68494,"station_name":"MANDINI"}},
    {"station_details":{"latitude":-33.3848,"longitude":19.3212,"synop_no":68815,"station_name":"CERES AWS"}},
    {"station_details":{"latitude":-23.8576,"longitude":29.4517,"synop_no":68174,"station_name":"POLOKWANE WO"}},
    {"station_details":{"latitude":-27.4058,"longitude":26.5044,"synop_no":68348,"station_name":"BOTHAVILLE - BALKFONTEIN"}},
    {"station_details":{"latitude":-30.5611,"longitude":17.9874,"synop_no":68516,"station_name":"GARIES AWS"}},
    {"station_details":{"latitude":-33.1964,"longitude":18.1241,"synop_no":68811,"station_name":"GEELBEK"}},
    {"station_details":{"latitude":-23.5948,"longitude":28.3878,"synop_no":68163,"station_name":"MARKEN"}},
    {"station_details":{"latitude":-26.5135,"longitude":28.3768,"synop_no":68364,"station_name":"HEIDELBERG AWS"}},
    {"station_details":{"latitude":-33.9377,"longitude":18.4109,"synop_no":68819,"station_name":"MOLTENO RESERVOIR"}},
    {"station_details":{"latitude":-29.25,  "longitude":16.8685,"synop_no":68408,"station_name":"PORT NOLLOTH"}},
    {"station_details":{"latitude":-25.8323,"longitude":29.1921,"synop_no":68273,"station_name":"WITBANK"}},
    {"station_details":{"latitude":-29.7535,"longitude":25.323, "synop_no":68541,"station_name":"FAURESMITH"}},
    {"station_details":{"latitude":-31.9653,"longitude":29.1346,"synop_no":68677,"station_name":"COFFEE BAY"}},
    {"station_details":{"latitude":-25.7486,"longitude":27.8325,"synop_no":68258,"station_name":"HARTEBEESPOORT DAM"}},
    {"station_details":{"latitude":-29.1204,"longitude":26.1874,"synop_no":68443,"station_name":"BLOEMFONTEIN - STAD"}},
    {"station_details":{"latitude":-32.0351,"longitude":18.3326,"synop_no":68613,"station_name":"LAMBERTSBAAI NORTIER"}},
    {"station_details":{"latitude":-28.8272,"longitude":27.9041,"synop_no":68449,"station_name":"FICKSBURG"}},
    {"station_details":{"latitude":-32.9725,"longitude":18.1578,"synop_no":68714,"station_name":"LANGEBAANWEG AWS"}},
    {"station_details":{"latitude":-22.9352,"longitude":30.3668,"synop_no":68189,"station_name":"TSHANOWA PRIMARY SCHOOL"}},
    {"station_details":{"latitude":-28.3126,"longitude":31.4206,"synop_no":68493,"station_name":"ULUNDI"}},
    {"station_details":{"latitude":-30.7544,"longitude":30.2577,"synop_no":68579,"station_name":"PADDOCK"}},
    {"station_details":{"latitude":-34.049, "longitude":23.0815,"synop_no":68935,"station_name":"KNYSNA"}},
    {"station_details":{"latitude":-26.2395,"longitude":28.4351,"synop_no":68363,"station_name":"SPRINGS"}},
    {"station_details":{"latitude":-28.7378,"longitude":32.0934,"synop_no":68495,"station_name":"RICHARDS BAY AIRPORT"}},
    {"station_details":{"latitude":-32.7881,"longitude":26.6293,"synop_no":68747,"station_name":"FORT BEAUFORT"}},
    {"station_details":{"latitude":-33.9336,"longitude":18.4775,"synop_no":68820,"station_name":"S A ASTRONOMICAL OBSERVATORY"}},
    {"station_details":{"latitude":-28.3789,"longitude":29.3853,"synop_no":68471,"station_name":"VAN REENEN"}},
    {"station_details":{"latitude":-25.8037,"longitude":25.5428,"synop_no":68242,"station_name":"MAFIKENG WO"}},
    {"station_details":{"latitude":-32.8945,"longitude":27.2868,"synop_no":68752,"station_name":"BISHO"}},
    {"station_details":{"latitude":-27.6703,"longitude":23.0063,"synop_no":68331,"station_name":"KATHU"}},
    {"station_details":{"latitude":-34.1497,"longitude":19.9031,"synop_no":68923,"station_name":"TYGERHOEK"}},
    {"station_details":{"latitude":-23.0943,"longitude":30.2863,"synop_no":68182,"station_name":"LEVUBU"}},
    {"station_details":{"latitude":-26.9547,"longitude":24.6527,"synop_no":68338,"station_name":"VRYBURG"}},
    {"station_details":{"latitude":-29.9403,"longitude":29.9597,"synop_no":68573,"station_name":"EMERALD DALE AWS"}},
    {"station_details":{"latitude":-33.8247,"longitude":23.8606,"synop_no":68833,"station_name":"JOUBERTINA SCHOOL AWS"}},
    {"station_details":{"latitude":-29.6694,"longitude":17.8788,"synop_no":68512,"station_name":"SPRINGBOK WO"}},
    {"station_details":{"latitude":-33.7653,"longitude":24.8233,"synop_no":68835,"station_name":"PATENSIE"}},
    {"station_details":{"latitude":-22.9845,"longitude":30.4583,"synop_no":68192,"station_name":"THOHOYANDOU WO"}},
    {"station_details":{"latitude":-26.8774,"longitude":22.0499,"synop_no":68329,"station_name":"VAN ZYLSRUS"}},
    {"station_details":{"latitude":-33.6509,"longitude":19.0057,"synop_no":68810,"station_name":"WELLINGTON"}},
    {"station_details":{"latitude":-27.9611,"longitude":29.0594,"synop_no":68376,"station_name":"WARDEN - HERITAGE"}},
    {"station_details":{"latitude":-31.0621,"longitude":30.2213,"synop_no":68587,"station_name":"PORT EDWARD"}},
    {"station_details":{"latitude":-33.9353,"longitude":22.4269,"synop_no":68829,"station_name":"GEORGE WITFONTEIN"}},
    {"station_details":{"latitude":-23.6767,"longitude":27.7051,"synop_no":68155,"station_name":"LEPHALALE"}},
    {"station_details":{"latitude":-27.4139,"longitude":31.5906,"synop_no":68481,"station_name":"PONGOLA"}},
    {"station_details":{"latitude":-31.4819,"longitude":19.7617,"synop_no":68618,"station_name":"CALVINIA WO"}},
    {"station_details":{"latitude":-34.1411,"longitude":18.8488,"synop_no":68911,"station_name":"STRAND"}},
    {"station_details":{"latitude":-25.6631,"longitude":28.2166,"synop_no":68266,"station_name":"WONDERBOOM AIRPORT"}},
    {"station_details":{"latitude":-29.6019,"longitude":31.1295,"synop_no":68594,"station_name":"KING SHAKA AWOS"}},
    {"station_details":{"latitude":-34.369, "longitude":21.3913,"synop_no":68927,"station_name":"STILBAAI"}},
    {"station_details":{"latitude":-25.8087,"longitude":28.7386,"synop_no":68274,"station_name":"BRONKHORSTSPRUIT AWS"}},
    {"station_details":{"latitude":-29.774, "longitude":31.0569,"synop_no":68590,"station_name":"VIRGINIA AIRPORT AAWS"}},
    {"station_details":{"latitude":-32.3476,"longitude":22.5731,"synop_no":68727,"station_name":"BEAUFORT-WES"}},
    {"station_details":{"latitude":-26.8145,"longitude":26.0107,"synop_no":68342,"station_name":"OTTOSDAL"}},
    {"station_details":{"latitude":-31.5497,"longitude":28.6739,"synop_no":68668,"station_name":"UMTHATHA WO"}},
    {"station_details":{"latitude":-22.692, "longitude":31.0159,"synop_no":68196,"station_name":"PUNDA MARIA"}},
    {"station_details":{"latitude":-28.595, "longitude":20.3401,"synop_no":68425,"station_name":"AUGRABIES FALLS"}},
    {"station_details":{"latitude":-32.9788,"longitude":18.1641,"synop_no":68695,"station_name":"LANGEBAANWEG - AAWS"}},
    {"station_details":{"latitude":-26.0739,"longitude":30.11,  "synop_no":68380,"station_name":"CAROLINA"}},
    {"station_details":{"latitude":-29.6478,"longitude":30.3995,"synop_no":68582,"station_name":"ORIBI AIRPORT"}},
    {"station_details":{"latitude":-33.1734,"longitude":22.0293,"synop_no":68823,"station_name":"PRINS ALBERT - SWARTRIVIER"}},
    {"station_details":{"latitude":-25.6607,"longitude":27.2322,"synop_no":68255,"station_name":"RUSTENBURG"}},
    {"station_details":{"latitude":-28.57,  "longitude":16.5287,"synop_no":68403,"station_name":"ALEXANDERBAAI"}},
    {"station_details":{"latitude":-23.1443,"longitude":29.557, "synop_no":68176,"station_name":"MARA"}},
    {"station_details":{"latitude":-27.4775,"longitude":32.5983,"synop_no":68397,"station_name":"MBAZWANA AIRFIELD"}},
    {"station_details":{"latitude":-29.9157,"longitude":26.847, "synop_no":68549,"station_name":"WEPENER"}},
    {"station_details":{"latitude":-33.2763,"longitude":18.7051,"synop_no":68716,"station_name":"LANGGEWENS"}},
    {"station_details":{"latitude":-25.9105,"longitude":28.2106,"synop_no":68263,"station_name":"IRENE WO"}},
    {"station_details":{"latitude":-29.2649,"longitude":29.5223,"synop_no":68589,"station_name":"GIANTS CASTLE AWS"}},
    {"station_details":{"latitude":-33.986, "longitude":18.4307,"synop_no":68812,"station_name":"KIRSTENBOSCH"}},
    {"station_details":{"latitude":-25.8277,"longitude":28.2235,"synop_no":68264,"station_name":"WATERKLOOF AIR FORCE BASE"}},
    {"station_details":{"latitude":-28.942, "longitude":26.3258,"synop_no":68447,"station_name":"GLEN COLLEGE AWS"}},
    {"station_details":{"latitude":-33.9679,"longitude":18.9224,"synop_no":68822,"station_name":"JONKERSHOEK"}},
    {"station_details":{"latitude":-28.5755,"longitude":29.7503,"synop_no":68479,"station_name":"LADYSMITH"}},
    {"station_details":{"latitude":-31.6534,"longitude":29.5077,"synop_no":68674,"station_name":"PORT ST. JOHNS"}},
    {"station_details":{"latitude":-34.1482,"longitude":18.3192,"synop_no":68912,"station_name":"CAPE TOWN SLANGKOP"}},
    {"station_details":{"latitude":-25.4718,"longitude":26.3819,"synop_no":68248,"station_name":"MARICO"}},
    {"station_details":{"latitude":-31.121, "longitude":26.8098,"synop_no":68649,"station_name":"JAMESTOWN"}},
    {"station_details":{"latitude":-28.3454,"longitude":23.079, "synop_no":68429,"station_name":"POSTMASBURG"}},
    {"station_details":{"latitude":-32.9636,"longitude":19.4308,"synop_no":68719,"station_name":"EXCELSIOR CERES"}},
    {"station_details":{"latitude":-32.4814,"longitude":18.537, "synop_no":68710,"station_name":"REDELINGSHUYS-AWS"}},
    {"station_details":{"latitude":-23.8864,"longitude":29.7432,"synop_no":68177,"station_name":"MANKWENG"}},
    {"station_details":{"latitude":-28.4111,"longitude":21.2641,"synop_no":68424,"station_name":"UPINGTON WO"}},
    {"station_details":{"latitude":-32.5276,"longitude":27.4606,"synop_no":68754,"station_name":"DOHNE - AGR"}},
    {"station_details":{"latitude":-26.5699,"longitude":27.9582,"synop_no":68353,"station_name":"VEREENIGING"}},
    {"station_details":{"latitude":-30.5028,"longitude":29.3942,"synop_no":68577,"station_name":"KOKSTAD"}},
    {"station_details":{"latitude":-33.4421,"longitude":25.7485,"synop_no":68841,"station_name":"ADDO ELEPHANT PARK"}},
    {"station_details":{"latitude":-34.4324,"longitude":19.2246,"synop_no":68918,"station_name":"HERMANUS"}},
    {"station_details":{"latitude":-25.6917,"longitude":30.0344,"synop_no":68285,"station_name":"BELFAST"}},
    {"station_details":{"latitude":-28.9474,"longitude":31.7079,"synop_no":68497,"station_name":"MTUNZINI"}},
    {"station_details":{"latitude":-33.8051,"longitude":25.6695,"synop_no":68837,"station_name":"NGQURA - COEGA"}},
    {"station_details":{"latitude":-24.6884,"longitude":26.1964,"synop_no":68241,"station_name":"MADIKWE GAME RESERVE"}},
    {"station_details":{"latitude":-26.7359,"longitude":27.0755,"synop_no":68350,"station_name":"POTCHEFSTROOM"}},
    {"station_details":{"latitude":-33.4725,"longitude":18.7183,"synop_no":68715,"station_name":"MALMESBURY"}},
    {"station_details":{"latitude":-23.9445,"longitude":31.1658,"synop_no":68193,"station_name":"PHALABORWA GATE"}},
    {"station_details":{"latitude":-27.4331,"longitude":23.4474,"synop_no":68333,"station_name":"KURUMAN"}},
    {"station_details":{"latitude":-30.8029,"longitude":26.8834,"synop_no":68546,"station_name":"ALIWAL-NORTH PLAATKOP"}},
    {"station_details":{"latitude":-34.2122,"longitude":24.8357,"synop_no":68939,"station_name":"CAPE ST FRANCIS"}},
    {"station_details":{"latitude":-23.5894,"longitude":30.3533,"synop_no":68190,"station_name":"MODJADJI WATER PLANT"}},
    {"station_details":{"latitude":-27.2881,"longitude":28.5114,"synop_no":68362,"station_name":"FRANKFORT AIRFIELD"}},
    {"station_details":{"latitude":-34.8002,"longitude":20.0569,"synop_no":68921,"station_name":"STRUISBAAI"}},
    {"station_details":{"latitude":-24.1967,"longitude":29.0066,"synop_no":68271,"station_name":"MOKOPANE"}},
    {"station_details":{"latitude":-28.444, "longitude":32.1821,"synop_no":68492,"station_name":"RIVERVIEW"}},
    {"station_details":{"latitude":-30.1955,"longitude":17.2903,"synop_no":68513,"station_name":"KOINGNAAS"}},
    {"station_details":{"latitude":-34.0215,"longitude":20.4367,"synop_no":68922,"station_name":"SWELLENDAM"}},
    {"station_details":{"latitude":-23.1586,"longitude":29.6943,"synop_no":68179,"station_name":"MAKHADO AIR FORCE BASE"}},
    {"station_details":{"latitude":-26.6375,"longitude":27.9346,"synop_no":68354,"station_name":"VEREENIGING - KOPANONG HOSPITAL"}},
    {"station_details":{"latitude":-29.7861,"longitude":26.9031,"synop_no":68542,"station_name":"KNELLPOORTDAM"}},
    {"station_details":{"latitude":-33.0497,"longitude":25.7193,"synop_no":68840,"station_name":"SOMERSET EAST"}},
    {"station_details":{"latitude":-25.752, "longitude":28.2585,"synop_no":68260,"station_name":"PRETORIA UNIVERSITY PROEFPLAAS"}},
    {"station_details":{"latitude":-29.218, "longitude":30.0025,"synop_no":68485,"station_name":"MOOI RIVER"}},
    {"station_details":{"latitude":-33.9206,"longitude":18.443, "synop_no":68817,"station_name":"CAPE TOWN - ROYAL YACHT CLUB"}},
    {"station_details":{"latitude":-25.385, "longitude":28.2544,"synop_no":68256,"station_name":"HAMMANSKRAAL-TEMBA AWS"}},
    {"station_details":{"latitude":-27.9575,"longitude":24.8406,"synop_no":68336,"station_name":"VAALHARTS AWS"}},
    {"station_details":{"latitude":-33.7219,"longitude":18.972, "synop_no":68713,"station_name":"PAARL"}},
    {"station_details":{"latitude":-25.2573,"longitude":27.2238,"synop_no":68257,"station_name":"PILANESBERG"}},
    {"station_details":{"latitude":-31.3363,"longitude":27.8404,"synop_no":68651,"station_name":"ELLIOT"}},
    {"station_details":{"latitude":-34.0229,"longitude":23.8986,"synop_no":68933,"station_name":"TSITSIKAMMA"}},
    {"station_details":{"latitude":-25.5025,"longitude":26.6963,"synop_no":68249,"station_name":"LINDLEYSPOORT"}},
    {"station_details":{"latitude":-29.6701,"longitude":22.7401,"synop_no":68527,"station_name":"PRIESKA"}},
    {"station_details":{"latitude":-25.3877,"longitude":31.0995,"synop_no":68290,"station_name":"KRUGER MPUMALANGA INT. AIR."}},
    {"station_details":{"latitude":-28.1978,"longitude":32.4142,"synop_no":68491,"station_name":"CHARTERS CREEK"}},
    {"station_details":{"latitude":-32.1768,"longitude":18.888, "synop_no":68711,"station_name":"CLANWILLIAM"}},
    {"station_details":{"latitude":-28.2496,"longitude":28.3343,"synop_no":68461,"station_name":"BETHLEHEM WO"}},
    {"station_details":{"latitude":-31.1863,"longitude":24.9603,"synop_no":68633,"station_name":"NOUPOORT"}},
    {"station_details":{"latitude":-22.9169,"longitude":30.4055,"synop_no":68186,"station_name":"MUKUMBANI TEA ESTATE - VENDA"}},
    {"station_details":{"latitude":-27.6665,"longitude":27.3136,"synop_no":68355,"station_name":"KROONSTAD"}},
    {"station_details":{"latitude":-30.8588,"longitude":30.3433,"synop_no":68591,"station_name":"MARGATE"}},
    {"station_details":{"latitude":-34.0896,"longitude":23.3259,"synop_no":68931,"station_name":"PLETTENBERGBAAI"}},
    {"station_details":{"latitude":-27.9947,"longitude":26.666, "synop_no":68345,"station_name":"WELKOM"}},
    {"station_details":{"latitude":-32.1931,"longitude":24.5432,"synop_no":68737,"station_name":"GRAAFF - REINET"}},
    {"station_details":{"latitude":-24.5799,"longitude":27.4134,"synop_no":68253,"station_name":"THABAZIMBI"}},
    {"station_details":{"latitude":-27.6511,"longitude":25.6219,"synop_no":68343,"station_name":"BLOEMHOF"}},
    {"station_details":{"latitude":-33.5595,"longitude":26.8809,"synop_no":68843,"station_name":"PORT ALFRED - AIRPORT"}},
    {"station_details":{"latitude":-34.3532,"longitude":18.4894,"synop_no":68916,"station_name":"CAPE POINT"}},
    {"station_details":{"latitude":-25.7663,"longitude":28.2005,"synop_no":68269,"station_name":"PRETORIA UNISA"}},
    {"station_details":{"latitude":-29.7729,"longitude":31.0555,"synop_no":68593,"station_name":"VIRGINIA"}},
    {"station_details":{"latitude":-33.9827,"longitude":25.6138,"synop_no":68844,"station_name":"PORT ELIZABETH AWS"}},
    {"station_details":{"latitude":-33.7141,"longitude":25.4352,"synop_no":68839,"station_name":"UITENHAGE"}},
    {"station_details":{"latitude":-26.4977,"longitude":29.9838,"synop_no":68267,"station_name":"ERMELO WO"}},
    {"station_details":{"latitude":-29.6278,"longitude":30.4029,"synop_no":68581,"station_name":"PIETERMARITZBURG"}},
    {"station_details":{"latitude":-33.5006,"longitude":21.2653,"synop_no":68825,"station_name":"LADISMITH"}},
    {"station_details":{"latitude":-28.7694,"longitude":17.6234,"synop_no":68411,"station_name":"VIOOLSDRIF - AWS"}},
    {"station_details":{"latitude":-31.9178,"longitude":26.8781,"synop_no":68647,"station_name":"QUEENSTOWN"}},
    {"station_details":{"latitude":-29.7068,"longitude":31.046, "synop_no":68583,"station_name":"MOUNT EDGECOMBE"}},
    {"station_details":{"latitude":-23.0797,"longitude":30.3838,"synop_no":68183,"station_name":"THOHOYANDOU AWS"}},
    {"station_details":{"latitude":-25.1815,"longitude":29.339, "synop_no":68272,"station_name":"OUDESTAD"}},
    {"station_details":{"latitude":-22.9607,"longitude":30.3545,"synop_no":68184,"station_name":"TSHIVHASIE TEA VENDA"}},
    {"station_details":{"latitude":-33.6639,"longitude":19.4187,"synop_no":68821,"station_name":"WORCESTER-AWS"}},
    {"station_details":{"latitude":-26.1308,"longitude":27.8799,"synop_no":68352,"station_name":"ROODEPOORT - KLOOFENDAL"}}
  ]
}
